[
  {
    "name": "Zagreb",
    "lat": "45.8000",
    "lng": "15.9500"
  },
  {
    "name": "Split",
    "lat": "43.5100",
    "lng": "16.4500"
  },
  {
    "name": "Rijeka",
    "lat": "45.3272",
    "lng": "14.4411"
  },
  {
    "name": "Osijek",
    "lat": "45.5603",
    "lng": "18.6703"
  },
  {
    "name": "Zadar",
    "lat": "44.1167",
    "lng": "15.2167"
  },
  {
    "name": "Velika Gorica",
    "lat": "45.7000",
    "lng": "16.0667"
  },
  {
    "name": "Pula",
    "lat": "44.8667",
    "lng": "13.8333"
  },
  {
    "name": "Slavonski Brod",
    "lat": "45.1553",
    "lng": "18.0144"
  },
  {
    "name": "Karlovac",
    "lat": "45.4931",
    "lng": "15.5558"
  },
  {
    "name": "Šibenik",
    "lat": "43.7339",
    "lng": "15.8956"
  },
  {
    "name": "Kaštel Stari",
    "lat": "43.5483",
    "lng": "16.3383"
  },
  {
    "name": "Dubrovnik",
    "lat": "42.6403",
    "lng": "18.1083"
  },
  {
    "name": "Bjelovar",
    "lat": "45.8989",
    "lng": "16.8422"
  },
  {
    "name": "Sisak",
    "lat": "45.4872",
    "lng": "16.3761"
  },
  {
    "name": "Čakovec",
    "lat": "46.3833",
    "lng": "16.4333"
  },
  {
    "name": "Vukovar",
    "lat": "45.3500",
    "lng": "19.0033"
  },
  {
    "name": "Virovitica",
    "lat": "45.8333",
    "lng": "17.3833"
  },
  {
    "name": "Samobor",
    "lat": "45.8011",
    "lng": "15.7110"
  },
  {
    "name": "Vrbovec",
    "lat": "45.8833",
    "lng": "16.4333"
  },
  {
    "name": "Ivanić-Grad",
    "lat": "45.7081",
    "lng": "16.3947"
  },
  {
    "name": "Rovinj",
    "lat": "45.0833",
    "lng": "13.6333"
  },
  {
    "name": "Trogir",
    "lat": "43.5167",
    "lng": "16.2500"
  },
  {
    "name": "Županja",
    "lat": "45.0667",
    "lng": "18.7000"
  },
  {
    "name": "Nova Gradiška",
    "lat": "45.2500",
    "lng": "17.3833"
  },
  {
    "name": "Opatija",
    "lat": "45.3347",
    "lng": "14.3069"
  },
  {
    "name": "Labin",
    "lat": "45.0833",
    "lng": "14.1167"
  },
  {
    "name": "Križevci",
    "lat": "46.0333",
    "lng": "16.5333"
  },
  {
    "name": "Crikvenica",
    "lat": "45.1833",
    "lng": "14.7000"
  },
  {
    "name": "Knin",
    "lat": "44.0333",
    "lng": "16.1833"
  },
  {
    "name": "Kastav",
    "lat": "45.3726",
    "lng": "14.3490"
  },
  {
    "name": "Slatina",
    "lat": "45.7000",
    "lng": "17.7000"
  },
  {
    "name": "Daruvar",
    "lat": "45.6000",
    "lng": "17.2167"
  },
  {
    "name": "Čepin",
    "lat": "45.5236",
    "lng": "18.5633"
  },
  {
    "name": "Bedekovčina",
    "lat": "46.0333",
    "lng": "16.0000"
  },
  {
    "name": "Našice",
    "lat": "45.4833",
    "lng": "18.1000"
  },
  {
    "name": "Poreč",
    "lat": "45.2167",
    "lng": "13.5833"
  },
  {
    "name": "Križ",
    "lat": "45.6500",
    "lng": "16.5167"
  },
  {
    "name": "Čavle",
    "lat": "45.3500",
    "lng": "14.4800"
  },
  {
    "name": "Novska",
    "lat": "45.3333",
    "lng": "16.9833"
  },
  {
    "name": "Ploče",
    "lat": "43.0525",
    "lng": "17.4367"
  },
  {
    "name": "Belišće",
    "lat": "45.6825",
    "lng": "18.4069"
  },
  {
    "name": "Krk",
    "lat": "45.0261",
    "lng": "14.5756"
  },
  {
    "name": "Donji Miholjac",
    "lat": "45.7500",
    "lng": "18.1500"
  },
  {
    "name": "Ivankovo",
    "lat": "45.2833",
    "lng": "18.6833"
  },
  {
    "name": "Gospić",
    "lat": "44.5469",
    "lng": "15.3744"
  },
  {
    "name": "Cestica",
    "lat": "46.3700",
    "lng": "16.1200"
  },
  {
    "name": "Darda",
    "lat": "45.6261",
    "lng": "18.6925"
  },
  {
    "name": "Buje",
    "lat": "45.4000",
    "lng": "13.6500"
  },
  {
    "name": "Ilok",
    "lat": "45.2225",
    "lng": "19.3728"
  },
  {
    "name": "Veliko Trgovišće",
    "lat": "46.0000",
    "lng": "15.8500"
  },
  {
    "name": "Vojnić",
    "lat": "45.3200",
    "lng": "15.6900"
  },
  {
    "name": "Glina",
    "lat": "45.3383",
    "lng": "16.0911"
  },
  {
    "name": "Delnice",
    "lat": "45.4000",
    "lng": "14.8000"
  },
  {
    "name": "Vela Luka",
    "lat": "42.9611",
    "lng": "16.7194"
  },
  {
    "name": "Imotski",
    "lat": "43.4500",
    "lng": "17.2167"
  },
  {
    "name": "Kutjevo",
    "lat": "45.4258",
    "lng": "17.8833"
  },
  {
    "name": "Orahovica",
    "lat": "45.5400",
    "lng": "17.8847"
  },
  {
    "name": "Jakovlje",
    "lat": "45.9364",
    "lng": "15.8553"
  },
  {
    "name": "Bošnjaci",
    "lat": "45.0500",
    "lng": "18.7600"
  },
  {
    "name": "Josipdol",
    "lat": "45.1886",
    "lng": "15.2848"
  },
  {
    "name": "Gunja",
    "lat": "44.8967",
    "lng": "18.8500"
  },
  {
    "name": "Brestovac",
    "lat": "45.3306",
    "lng": "17.5963"
  },
  {
    "name": "Novalja",
    "lat": "44.5500",
    "lng": "14.8833"
  },
  {
    "name": "Bilje",
    "lat": "45.6069",
    "lng": "18.7439"
  },
  {
    "name": "Babina Greda",
    "lat": "45.1167",
    "lng": "18.5333"
  },
  {
    "name": "Martinska Ves",
    "lat": "45.5800",
    "lng": "16.3700"
  },
  {
    "name": "Pleternica",
    "lat": "45.2864",
    "lng": "17.8019"
  },
  {
    "name": "Vodnjan",
    "lat": "44.9667",
    "lng": "13.8500"
  },
  {
    "name": "Gradac",
    "lat": "43.1061",
    "lng": "17.3411"
  },
  {
    "name": "Supetar",
    "lat": "43.3844",
    "lng": "16.5553"
  },
  {
    "name": "Primošten",
    "lat": "43.5833",
    "lng": "15.9167"
  },
  {
    "name": "Ivanska",
    "lat": "45.7833",
    "lng": "16.8167"
  },
  {
    "name": "Veliki Grđevac",
    "lat": "45.7500",
    "lng": "17.0500"
  },
  {
    "name": "Gradište",
    "lat": "45.1500",
    "lng": "18.7100"
  },
  {
    "name": "Veliko Trojstvo",
    "lat": "45.9333",
    "lng": "16.9333"
  },
  {
    "name": "Dežanovac",
    "lat": "45.5667",
    "lng": "17.0833"
  },
  {
    "name": "Vrlika",
    "lat": "43.9167",
    "lng": "16.4000"
  },
  {
    "name": "Suhopolje",
    "lat": "45.7997",
    "lng": "17.4992"
  },
  {
    "name": "Benkovac",
    "lat": "44.0344",
    "lng": "15.6128"
  },
  {
    "name": "Novigrad",
    "lat": "45.3200",
    "lng": "13.5600"
  },
  {
    "name": "Strizivojna",
    "lat": "45.2300",
    "lng": "18.4200"
  },
  {
    "name": "Budinšćina",
    "lat": "46.1256",
    "lng": "16.2050"
  },
  {
    "name": "Donji Andrijevci",
    "lat": "45.1833",
    "lng": "18.3000"
  },
  {
    "name": "Jarmina",
    "lat": "45.3167",
    "lng": "18.7333"
  },
  {
    "name": "Rešetari",
    "lat": "45.2631",
    "lng": "17.4233"
  },
  {
    "name": "Sibinj",
    "lat": "45.1894",
    "lng": "17.9081"
  },
  {
    "name": "Stari Mikanovci",
    "lat": "45.2833",
    "lng": "18.5500"
  },
  {
    "name": "Končanica",
    "lat": "45.6379",
    "lng": "17.1646"
  },
  {
    "name": "Hrvatska Dubica",
    "lat": "45.1893",
    "lng": "16.7985"
  },
  {
    "name": "Petrijevci",
    "lat": "45.6128",
    "lng": "18.5353"
  },
  {
    "name": "Vrbanja",
    "lat": "44.9833",
    "lng": "18.9333"
  },
  {
    "name": "Beretinec",
    "lat": "46.2500",
    "lng": "16.3000"
  },
  {
    "name": "Štitar",
    "lat": "45.1000",
    "lng": "18.6400"
  },
  {
    "name": "Velika",
    "lat": "45.4556",
    "lng": "17.6625"
  },
  {
    "name": "Čačinci",
    "lat": "45.6000",
    "lng": "17.8700"
  },
  {
    "name": "Cerna",
    "lat": "45.1903",
    "lng": "18.6889"
  },
  {
    "name": "Andrijaševci",
    "lat": "45.2167",
    "lng": "18.7333"
  },
  {
    "name": "Bizovac",
    "lat": "45.6000",
    "lng": "18.4667"
  },
  {
    "name": "Gundinci",
    "lat": "45.1500",
    "lng": "18.4833"
  },
  {
    "name": "Bukovlje",
    "lat": "45.1900",
    "lng": "18.0700"
  },
  {
    "name": "Vođinci",
    "lat": "45.2756",
    "lng": "18.6097"
  },
  {
    "name": "Drenovci",
    "lat": "44.9200",
    "lng": "18.8500"
  },
  {
    "name": "Gornja Vrba",
    "lat": "45.1500",
    "lng": "18.0667"
  },
  {
    "name": "Jakšić",
    "lat": "45.3581",
    "lng": "17.7639"
  },
  {
    "name": "Oriovac",
    "lat": "45.1661",
    "lng": "17.7600"
  },
  {
    "name": "Sikirevci",
    "lat": "45.1167",
    "lng": "18.4667"
  },
  {
    "name": "Brela",
    "lat": "43.3700",
    "lng": "16.9300"
  },
  {
    "name": "Varaždinske Toplice",
    "lat": "46.2081",
    "lng": "16.4214"
  },
  {
    "name": "Velika Kopanica",
    "lat": "45.1500",
    "lng": "18.4000"
  },
  {
    "name": "Vrpolje",
    "lat": "45.2106",
    "lng": "18.4056"
  },
  {
    "name": "Preseka",
    "lat": "45.9667",
    "lng": "16.3833"
  },
  {
    "name": "Kneževi Vinogradi",
    "lat": "45.7500",
    "lng": "18.7300"
  },
  {
    "name": "Feričanci",
    "lat": "45.5333",
    "lng": "17.9833"
  },
  {
    "name": "Cernik",
    "lat": "45.2900",
    "lng": "17.3800"
  },
  {
    "name": "Nijemci",
    "lat": "45.1333",
    "lng": "19.0333"
  },
  {
    "name": "Okučani",
    "lat": "45.2603",
    "lng": "17.1989"
  },
  {
    "name": "Brodski Stupnik",
    "lat": "45.1670",
    "lng": "17.8000"
  },
  {
    "name": "Breznički Hum",
    "lat": "46.1189",
    "lng": "16.2739"
  },
  {
    "name": "Staro Petrovo Selo",
    "lat": "45.2333",
    "lng": "17.5167"
  },
  {
    "name": "Bakar",
    "lat": "45.3167",
    "lng": "14.5333"
  },
  {
    "name": "Postire",
    "lat": "43.3757",
    "lng": "16.6298"
  },
  {
    "name": "Pučišće",
    "lat": "43.3475",
    "lng": "16.7300"
  },
  {
    "name": "Koška",
    "lat": "45.5500",
    "lng": "18.2833"
  },
  {
    "name": "Lopar",
    "lat": "44.8306",
    "lng": "14.7306"
  },
  {
    "name": "Trpinja",
    "lat": "45.4167",
    "lng": "18.9000"
  },
  {
    "name": "Negoslavci",
    "lat": "45.2800",
    "lng": "19.0000"
  },
  {
    "name": "Bedenica",
    "lat": "46.0223",
    "lng": "16.2639"
  },
  {
    "name": "Satnica Ðakovačka",
    "lat": "45.3558",
    "lng": "18.3781"
  },
  {
    "name": "Semeljci",
    "lat": "45.3667",
    "lng": "18.5500"
  },
  {
    "name": "Viljevo",
    "lat": "45.7500",
    "lng": "18.0667"
  },
  {
    "name": "Donja Motičina",
    "lat": "45.5000",
    "lng": "18.0167"
  },
  {
    "name": "Voćin",
    "lat": "45.6178",
    "lng": "17.5478"
  },
  {
    "name": "Viškovci",
    "lat": "45.3500",
    "lng": "18.4667"
  },
  {
    "name": "Vladislavci",
    "lat": "45.4667",
    "lng": "18.5667"
  },
  {
    "name": "Ernestinovo",
    "lat": "45.4500",
    "lng": "18.6600"
  },
  {
    "name": "Markušica",
    "lat": "45.3738",
    "lng": "18.7062"
  },
  {
    "name": "Zagorska Sela",
    "lat": "46.0969",
    "lng": "15.6350"
  },
  {
    "name": "Čeminac",
    "lat": "45.6867",
    "lng": "18.6683"
  },
  {
    "name": "Zdenci",
    "lat": "45.5892",
    "lng": "17.9503"
  },
  {
    "name": "Garčin",
    "lat": "45.1817",
    "lng": "18.1856"
  },
  {
    "name": "Oprisavci",
    "lat": "45.1500",
    "lng": "18.2333"
  },
  {
    "name": "Trpanj",
    "lat": "43.0080",
    "lng": "17.2734"
  },
  {
    "name": "Lovas",
    "lat": "45.2333",
    "lng": "19.1667"
  },
  {
    "name": "Podgorač",
    "lat": "45.4667",
    "lng": "18.2167"
  },
  {
    "name": "Mikleuš",
    "lat": "45.6200",
    "lng": "17.8000"
  },
  {
    "name": "Marjanci",
    "lat": "45.6667",
    "lng": "18.3000"
  },
  {
    "name": "Nova Bukovica",
    "lat": "45.6600",
    "lng": "17.7669"
  },
  {
    "name": "Podravska Moslavina",
    "lat": "45.7853",
    "lng": "17.9819"
  },
  {
    "name": "Povljana",
    "lat": "44.3467",
    "lng": "15.1156"
  },
  {
    "name": "Tordinci",
    "lat": "45.3667",
    "lng": "18.8000"
  },
  {
    "name": "Petlovac",
    "lat": "45.7583",
    "lng": "18.5281"
  },
  {
    "name": "Gornji Bogičevci",
    "lat": "45.2600",
    "lng": "17.2300"
  },
  {
    "name": "Čađavica",
    "lat": "45.7425",
    "lng": "17.8550"
  },
  {
    "name": "Punitovci",
    "lat": "45.4331",
    "lng": "18.4164"
  },
  {
    "name": "Čaglin",
    "lat": "45.3500",
    "lng": "17.9833"
  },
  {
    "name": "Drenje",
    "lat": "45.3800",
    "lng": "18.2800"
  },
  {
    "name": "Dragalić",
    "lat": "45.2500",
    "lng": "17.2833"
  },
  {
    "name": "Sopje",
    "lat": "45.8011",
    "lng": "17.7425"
  },
  {
    "name": "Draž",
    "lat": "45.8422",
    "lng": "18.7886"
  },
  {
    "name": "Bebrina",
    "lat": "45.1000",
    "lng": "17.8333"
  },
  {
    "name": "Vrbje",
    "lat": "45.1833",
    "lng": "17.4167"
  },
  {
    "name": "Podcrkavlje",
    "lat": "45.2167",
    "lng": "18.0167"
  },
  {
    "name": "Tounj",
    "lat": "45.2528",
    "lng": "15.3260"
  },
  {
    "name": "Šodolovci",
    "lat": "45.3997",
    "lng": "18.6209"
  },
  {
    "name": "Stara Gradiška",
    "lat": "45.1500",
    "lng": "17.2500"
  },
  {
    "name": "Tompojevci",
    "lat": "45.2333",
    "lng": "19.1000"
  },
  {
    "name": "Kumrovec",
    "lat": "46.0856",
    "lng": "15.6778"
  },
  {
    "name": "Levanjska Varoš",
    "lat": "45.3167",
    "lng": "18.1833"
  },
  {
    "name": "Klakar",
    "lat": "45.1000",
    "lng": "18.1333"
  },
  {
    "name": "Magadenovac",
    "lat": "45.6608",
    "lng": "18.1878"
  },
  {
    "name": "Prgomet",
    "lat": "43.6160",
    "lng": "16.2300"
  },
  {
    "name": "Varaždin",
    "lat": "46.3000",
    "lng": "16.3333"
  },
  {
    "name": "Koprivnica",
    "lat": "46.1500",
    "lng": "16.8167"
  },
  {
    "name": "Požega",
    "lat": "45.3314",
    "lng": "17.6744"
  },
  {
    "name": "Krapina",
    "lat": "46.1589",
    "lng": "15.8744"
  },
  {
    "name": "Pazin",
    "lat": "45.2392",
    "lng": "13.9386"
  },
  {
    "name": "Podstrana",
    "lat": "43.4800",
    "lng": "16.5800"
  },
  {
    "name": "Viškovo",
    "lat": "45.3600",
    "lng": "14.3800"
  },
  {
    "name": "Sračinec",
    "lat": "46.3294",
    "lng": "16.2789"
  },
  {
    "name": "Solin",
    "lat": "43.5394",
    "lng": "16.4831"
  },
  {
    "name": "Kaštel Sućurac",
    "lat": "43.5503",
    "lng": "16.4264"
  },
  {
    "name": "Zaprešić",
    "lat": "45.8500",
    "lng": "15.8000"
  },
  {
    "name": "Brdovec",
    "lat": "45.8703",
    "lng": "15.7644"
  },
  {
    "name": "Dugi Rat",
    "lat": "43.4461",
    "lng": "16.6389"
  },
  {
    "name": "Sveta Nedjelja",
    "lat": "45.7983",
    "lng": "15.7806"
  },
  {
    "name": "Okrug Gornji",
    "lat": "43.4969",
    "lng": "16.2200"
  },
  {
    "name": "Kostrena",
    "lat": "45.3011",
    "lng": "14.5056"
  },
  {
    "name": "Vinkovci",
    "lat": "45.2833",
    "lng": "18.8000"
  },
  {
    "name": "Dugo Selo",
    "lat": "45.8000",
    "lng": "16.2333"
  },
  {
    "name": "Šenkovec",
    "lat": "46.4100",
    "lng": "16.4200"
  },
  {
    "name": "Makarska",
    "lat": "43.2931",
    "lng": "17.0200"
  },
  {
    "name": "Strahoninec",
    "lat": "46.3689",
    "lng": "16.4150"
  },
  {
    "name": "Metković",
    "lat": "43.0500",
    "lng": "17.6500"
  },
  {
    "name": "Bibinje",
    "lat": "44.0717",
    "lng": "15.2878"
  },
  {
    "name": "Petrovsko",
    "lat": "46.1600",
    "lng": "15.8400"
  },
  {
    "name": "Donji Seget",
    "lat": "43.5167",
    "lng": "16.2333"
  },
  {
    "name": "Sveti Ilija",
    "lat": "46.2450",
    "lng": "16.3381"
  },
  {
    "name": "Privlaka",
    "lat": "44.2633",
    "lng": "15.1197"
  },
  {
    "name": "Tovarnik",
    "lat": "45.1667",
    "lng": "19.1500"
  },
  {
    "name": "Kraljevica",
    "lat": "45.2741",
    "lng": "14.5683"
  },
  {
    "name": "Pribislavec",
    "lat": "46.3925",
    "lng": "16.4825"
  },
  {
    "name": "Zabok",
    "lat": "46.0500",
    "lng": "15.9667"
  },
  {
    "name": "Nedelišće",
    "lat": "46.3800",
    "lng": "16.3900"
  },
  {
    "name": "Lovran",
    "lat": "45.2917",
    "lng": "14.2764"
  },
  {
    "name": "Hum na Sutli",
    "lat": "46.2100",
    "lng": "15.6900"
  },
  {
    "name": "Srebreno",
    "lat": "42.6233",
    "lng": "18.1961"
  },
  {
    "name": "Luka",
    "lat": "45.9667",
    "lng": "15.8167"
  },
  {
    "name": "Trnovec Bartolovečki",
    "lat": "46.2947",
    "lng": "16.3989"
  },
  {
    "name": "Medulin",
    "lat": "44.8197",
    "lng": "13.9350"
  },
  {
    "name": "Oroslavje",
    "lat": "45.9961",
    "lng": "15.9144"
  },
  {
    "name": "Fažana",
    "lat": "44.9281",
    "lng": "13.8042"
  },
  {
    "name": "Duga Resa",
    "lat": "45.4472",
    "lng": "15.4958"
  },
  {
    "name": "Nuštar",
    "lat": "45.3333",
    "lng": "18.8333"
  },
  {
    "name": "Ðakovo",
    "lat": "45.3083",
    "lng": "18.4106"
  },
  {
    "name": "Vir",
    "lat": "44.3000",
    "lng": "15.0900"
  },
  {
    "name": "Lopatinec",
    "lat": "46.4333",
    "lng": "16.3833"
  },
  {
    "name": "Umag",
    "lat": "45.4336",
    "lng": "13.5172"
  },
  {
    "name": "Beli Manastir",
    "lat": "45.7667",
    "lng": "18.6000"
  },
  {
    "name": "Vidovec",
    "lat": "46.2833",
    "lng": "16.2411"
  },
  {
    "name": "Biograd na Moru",
    "lat": "43.9333",
    "lng": "15.4333"
  },
  {
    "name": "Gornji Stupnik",
    "lat": "45.7619",
    "lng": "15.8484"
  },
  {
    "name": "Gornji Kneginec",
    "lat": "46.2500",
    "lng": "16.3700"
  },
  {
    "name": "Sveti Križ Začretje",
    "lat": "46.0800",
    "lng": "15.9100"
  },
  {
    "name": "Marija Gorica",
    "lat": "45.9200",
    "lng": "15.7300"
  },
  {
    "name": "Ivanec",
    "lat": "46.2167",
    "lng": "16.1167"
  },
  {
    "name": "Galovac",
    "lat": "44.0714",
    "lng": "15.3933"
  },
  {
    "name": "Orehovica",
    "lat": "46.3317",
    "lng": "16.5069"
  },
  {
    "name": "Donja Pušća",
    "lat": "45.9333",
    "lng": "15.7667"
  },
  {
    "name": "Prelog",
    "lat": "46.3350",
    "lng": "16.6150"
  },
  {
    "name": "Mursko Središće",
    "lat": "46.5000",
    "lng": "16.4333"
  },
  {
    "name": "Vrsar",
    "lat": "45.1500",
    "lng": "13.6100"
  },
  {
    "name": "Poljanica Bistranska",
    "lat": "45.9000",
    "lng": "15.8833"
  },
  {
    "name": "Donja Stubica",
    "lat": "45.9833",
    "lng": "15.9667"
  },
  {
    "name": "Lepoglava",
    "lat": "46.2000",
    "lng": "16.0333"
  },
  {
    "name": "Goričan",
    "lat": "46.3833",
    "lng": "16.6833"
  },
  {
    "name": "Funtana",
    "lat": "45.1731",
    "lng": "13.6061"
  },
  {
    "name": "Maruševec",
    "lat": "46.2889",
    "lng": "16.1831"
  },
  {
    "name": "Mala Subotica",
    "lat": "46.3800",
    "lng": "16.5400"
  },
  {
    "name": "Selnica",
    "lat": "46.4961",
    "lng": "16.4036"
  },
  {
    "name": "Tar",
    "lat": "45.3008",
    "lng": "13.6253"
  },
  {
    "name": "Ðurmanec",
    "lat": "46.1964",
    "lng": "15.8408"
  },
  {
    "name": "Ludbreg",
    "lat": "46.2500",
    "lng": "16.6017"
  },
  {
    "name": "Vratišinec",
    "lat": "46.4800",
    "lng": "16.4600"
  },
  {
    "name": "Donji Kraljevec",
    "lat": "46.3700",
    "lng": "16.6500"
  },
  {
    "name": "Kukljica",
    "lat": "44.0350",
    "lng": "15.2464"
  },
  {
    "name": "Špišić-Bukovica",
    "lat": "45.8561",
    "lng": "17.3000"
  },
  {
    "name": "Kali",
    "lat": "44.0600",
    "lng": "15.2100"
  },
  {
    "name": "Novi Marof",
    "lat": "46.1667",
    "lng": "16.3333"
  },
  {
    "name": "Bilice",
    "lat": "43.7753",
    "lng": "15.9181"
  },
  {
    "name": "Sinj",
    "lat": "43.7000",
    "lng": "16.6333"
  },
  {
    "name": "Zmijavci",
    "lat": "43.4108",
    "lng": "17.2056"
  },
  {
    "name": "Krapinske Toplice",
    "lat": "46.0919",
    "lng": "15.8389"
  },
  {
    "name": "Zlatar Bistrica",
    "lat": "46.0600",
    "lng": "16.0700"
  },
  {
    "name": "Kotoriba",
    "lat": "46.3600",
    "lng": "16.8200"
  },
  {
    "name": "Lumbarda",
    "lat": "42.9286",
    "lng": "17.1714"
  },
  {
    "name": "Gornja Stubica",
    "lat": "45.9600",
    "lng": "16.0300"
  },
  {
    "name": "Baška Voda",
    "lat": "43.3574",
    "lng": "16.9491"
  },
  {
    "name": "Donja Dubrava",
    "lat": "46.3147",
    "lng": "16.8119"
  },
  {
    "name": "Sveti Martin na Muri",
    "lat": "46.5333",
    "lng": "16.3833"
  },
  {
    "name": "Belica",
    "lat": "46.4042",
    "lng": "16.5183"
  },
  {
    "name": "Vodice",
    "lat": "43.7506",
    "lng": "15.7789"
  },
  {
    "name": "Stubičke Toplice",
    "lat": "45.9661",
    "lng": "15.9300"
  },
  {
    "name": "Radoboj",
    "lat": "46.1664",
    "lng": "15.9236"
  },
  {
    "name": "Sveti Filip i Jakov",
    "lat": "43.9614",
    "lng": "15.4248"
  },
  {
    "name": "Slavonski Šamac",
    "lat": "45.0667",
    "lng": "18.4833"
  },
  {
    "name": "Podbablje",
    "lat": "43.4169",
    "lng": "17.1761"
  },
  {
    "name": "Sveta Marija",
    "lat": "46.3333",
    "lng": "16.7333"
  },
  {
    "name": "Podturen",
    "lat": "46.4647",
    "lng": "16.5461"
  },
  {
    "name": "Donji Vidovec",
    "lat": "46.3300",
    "lng": "16.7900"
  },
  {
    "name": "Pregrada",
    "lat": "46.1642",
    "lng": "15.7508"
  },
  {
    "name": "Opuzen",
    "lat": "43.0175",
    "lng": "17.5628"
  },
  {
    "name": "Vinica",
    "lat": "46.3361",
    "lng": "16.1494"
  },
  {
    "name": "Petrijanec",
    "lat": "46.3492",
    "lng": "16.2250"
  },
  {
    "name": "Brckovljani",
    "lat": "45.8300",
    "lng": "16.3000"
  },
  {
    "name": "Tuhelj",
    "lat": "46.0769",
    "lng": "15.7472"
  },
  {
    "name": "Mače",
    "lat": "46.0947",
    "lng": "16.0353"
  },
  {
    "name": "Koprivnički Bregi",
    "lat": "46.1386",
    "lng": "16.9058"
  },
  {
    "name": "Rugvica",
    "lat": "45.7361",
    "lng": "16.2331"
  },
  {
    "name": "Sveti Ðurđ",
    "lat": "46.2844",
    "lng": "16.6042"
  },
  {
    "name": "Jalžabet",
    "lat": "46.2600",
    "lng": "16.4800"
  },
  {
    "name": "Marija Bistrica",
    "lat": "46.0042",
    "lng": "16.1186"
  },
  {
    "name": "Sveti Ivan Zelina",
    "lat": "45.9500",
    "lng": "16.2333"
  },
  {
    "name": "Konjšćina",
    "lat": "46.0528",
    "lng": "16.1800"
  },
  {
    "name": "Tučepi",
    "lat": "43.2650",
    "lng": "17.0569"
  },
  {
    "name": "Škabrnje",
    "lat": "44.0916",
    "lng": "15.4516"
  },
  {
    "name": "Sukošan",
    "lat": "44.0490",
    "lng": "15.3120"
  },
  {
    "name": "Valpovo",
    "lat": "45.6500",
    "lng": "18.4167"
  },
  {
    "name": "Murter",
    "lat": "43.8204",
    "lng": "15.5899"
  },
  {
    "name": "Malinska",
    "lat": "45.1253",
    "lng": "14.5281"
  },
  {
    "name": "Vrsi",
    "lat": "44.2625",
    "lng": "15.2333"
  },
  {
    "name": "Omišalj",
    "lat": "45.2119",
    "lng": "14.5542"
  },
  {
    "name": "Rab",
    "lat": "44.7561",
    "lng": "14.7611"
  },
  {
    "name": "Novi Golubovec",
    "lat": "46.1800",
    "lng": "15.9800"
  },
  {
    "name": "Kloštar Ivanić",
    "lat": "45.7400",
    "lng": "16.4200"
  },
  {
    "name": "Lobor",
    "lat": "46.1500",
    "lng": "16.0600"
  },
  {
    "name": "Zlatar",
    "lat": "46.1500",
    "lng": "16.1167"
  },
  {
    "name": "Dekanovec",
    "lat": "46.4500",
    "lng": "16.5800"
  },
  {
    "name": "Kraljevec na Sutli",
    "lat": "45.9800",
    "lng": "15.7300"
  },
  {
    "name": "Matulji",
    "lat": "45.3667",
    "lng": "14.3167"
  },
  {
    "name": "Sveti Petar u Šumi",
    "lat": "45.1833",
    "lng": "13.8614"
  },
  {
    "name": "Tribunj",
    "lat": "43.7506",
    "lng": "15.7789"
  },
  {
    "name": "Kutina",
    "lat": "45.4791",
    "lng": "16.7768"
  },
  {
    "name": "Klenovnik",
    "lat": "46.2700",
    "lng": "16.0700"
  },
  {
    "name": "Dubravica",
    "lat": "45.9500",
    "lng": "15.7333"
  },
  {
    "name": "Davor",
    "lat": "45.1167",
    "lng": "17.5167"
  },
  {
    "name": "Bol",
    "lat": "43.2619",
    "lng": "16.6550"
  },
  {
    "name": "Jastrebarsko",
    "lat": "45.6667",
    "lng": "15.6500"
  },
  {
    "name": "Pakoštane",
    "lat": "43.9094",
    "lng": "15.5081"
  },
  {
    "name": "Klinča Sela",
    "lat": "45.6800",
    "lng": "15.7500"
  },
  {
    "name": "Antunovac",
    "lat": "45.4900",
    "lng": "18.6800"
  },
  {
    "name": "Ližnjan",
    "lat": "44.8286",
    "lng": "13.9564"
  },
  {
    "name": "Preko",
    "lat": "44.0864",
    "lng": "15.1828"
  },
  {
    "name": "Desinić",
    "lat": "46.1400",
    "lng": "15.6600"
  },
  {
    "name": "Petrinja",
    "lat": "45.4375",
    "lng": "16.2900"
  },
  {
    "name": "Gornji Mihaljevec",
    "lat": "46.4300",
    "lng": "16.3600"
  },
  {
    "name": "Veliki Bukovec",
    "lat": "46.2944",
    "lng": "16.7131"
  },
  {
    "name": "Donja Voća",
    "lat": "46.3000",
    "lng": "16.1000"
  },
  {
    "name": "Pitomača",
    "lat": "45.9506",
    "lng": "17.2294"
  },
  {
    "name": "Martijanec",
    "lat": "46.2667",
    "lng": "16.5333"
  },
  {
    "name": "Breznica",
    "lat": "46.0700",
    "lng": "16.2700"
  },
  {
    "name": "Tisno",
    "lat": "43.8042",
    "lng": "15.6433"
  },
  {
    "name": "Štrigova",
    "lat": "46.5000",
    "lng": "16.2881"
  },
  {
    "name": "Gornje Jesenje",
    "lat": "46.2064",
    "lng": "15.9125"
  },
  {
    "name": "Kloštar Podravski",
    "lat": "45.9833",
    "lng": "17.1617"
  },
  {
    "name": "Hvar",
    "lat": "43.1714",
    "lng": "16.4419"
  },
  {
    "name": "Koprivnički Ivanec",
    "lat": "46.2000",
    "lng": "16.8161"
  },
  {
    "name": "Ðelekovec",
    "lat": "46.2486",
    "lng": "16.8667"
  },
  {
    "name": "Visoko",
    "lat": "46.0903",
    "lng": "16.3250"
  },
  {
    "name": "Domašinec",
    "lat": "46.4333",
    "lng": "16.6000"
  },
  {
    "name": "Podravske Sesvete",
    "lat": "46.0000",
    "lng": "17.2117"
  },
  {
    "name": "Mali Bukovec",
    "lat": "46.2831",
    "lng": "16.7392"
  },
  {
    "name": "Rovišće",
    "lat": "45.9500",
    "lng": "16.7333"
  },
  {
    "name": "Ðurđenovac",
    "lat": "45.5433",
    "lng": "18.0458"
  },
  {
    "name": "Pirovac",
    "lat": "43.8186",
    "lng": "15.6683"
  },
  {
    "name": "Punat",
    "lat": "45.0100",
    "lng": "14.6300"
  },
  {
    "name": "Virje",
    "lat": "46.0672",
    "lng": "16.9900"
  },
  {
    "name": "Omiš",
    "lat": "43.4458",
    "lng": "16.6883"
  },
  {
    "name": "Mihovljan",
    "lat": "46.1331",
    "lng": "15.9722"
  },
  {
    "name": "Posedarje",
    "lat": "44.2167",
    "lng": "15.4833"
  },
  {
    "name": "Popovača",
    "lat": "45.5697",
    "lng": "16.6250"
  },
  {
    "name": "Dugopolje",
    "lat": "43.5803",
    "lng": "16.5969"
  },
  {
    "name": "Otok",
    "lat": "43.6914",
    "lng": "16.7383"
  },
  {
    "name": "Korčula",
    "lat": "42.9617",
    "lng": "17.1358"
  },
  {
    "name": "Donji Proložac",
    "lat": "43.4690",
    "lng": "17.1520"
  },
  {
    "name": "Polača",
    "lat": "44.0167",
    "lng": "15.5167"
  },
  {
    "name": "Poličnik",
    "lat": "44.1833",
    "lng": "15.3833"
  },
  {
    "name": "Jelenje",
    "lat": "45.3800",
    "lng": "14.4500"
  },
  {
    "name": "Starigrad",
    "lat": "43.1846",
    "lng": "16.6002"
  },
  {
    "name": "Hrašćina",
    "lat": "46.1100",
    "lng": "16.2200"
  },
  {
    "name": "Peteranec",
    "lat": "46.1922",
    "lng": "16.8917"
  },
  {
    "name": "Ljubešćica",
    "lat": "46.1667",
    "lng": "16.3833"
  },
  {
    "name": "Ðurđevac",
    "lat": "46.0411",
    "lng": "17.0697"
  },
  {
    "name": "Nedeščina",
    "lat": "45.1422",
    "lng": "14.1114"
  },
  {
    "name": "Vuka",
    "lat": "45.4339",
    "lng": "18.5050"
  },
  {
    "name": "Orle",
    "lat": "45.6800",
    "lng": "16.2300"
  },
  {
    "name": "Brtonigla",
    "lat": "45.3833",
    "lng": "13.6333"
  },
  {
    "name": "Bednja",
    "lat": "46.2300",
    "lng": "15.9800"
  },
  {
    "name": "Sveti Petar Orehovec",
    "lat": "46.0756",
    "lng": "16.4517"
  },
  {
    "name": "Kalnik",
    "lat": "46.1283",
    "lng": "16.4625"
  },
  {
    "name": "Gornja Rijeka",
    "lat": "46.1100",
    "lng": "16.3900"
  },
  {
    "name": "Sveti Ivan Žabno",
    "lat": "45.9461",
    "lng": "16.6133"
  },
  {
    "name": "Žminj",
    "lat": "45.1500",
    "lng": "13.9167"
  },
  {
    "name": "Hrvatska Kostajnica",
    "lat": "45.2333",
    "lng": "16.5333"
  },
  {
    "name": "Novigrad",
    "lat": "44.1942",
    "lng": "15.5567"
  },
  {
    "name": "Erdut",
    "lat": "45.5333",
    "lng": "19.0667"
  },
  {
    "name": "Molve",
    "lat": "46.1092",
    "lng": "17.0317"
  },
  {
    "name": "Raša",
    "lat": "45.0803",
    "lng": "14.0789"
  },
  {
    "name": "Garešnica",
    "lat": "45.5742",
    "lng": "16.9408"
  },
  {
    "name": "Legrad",
    "lat": "46.3000",
    "lng": "16.8667"
  },
  {
    "name": "Dubrava",
    "lat": "45.8381",
    "lng": "16.5439"
  },
  {
    "name": "Stari Jankovci",
    "lat": "45.2667",
    "lng": "18.9167"
  },
  {
    "name": "Drnje",
    "lat": "46.2050",
    "lng": "16.9081"
  },
  {
    "name": "Hercegovac",
    "lat": "45.6586",
    "lng": "17.0136"
  },
  {
    "name": "Kalinovac",
    "lat": "46.0231",
    "lng": "17.1119"
  },
  {
    "name": "Ražanac",
    "lat": "44.2833",
    "lng": "15.3500"
  },
  {
    "name": "Otok",
    "lat": "45.1467",
    "lng": "18.8839"
  },
  {
    "name": "Novo Virje",
    "lat": "46.0983",
    "lng": "17.1550"
  },
  {
    "name": "Lukač",
    "lat": "45.8725",
    "lng": "17.4194"
  },
  {
    "name": "Zadvarje",
    "lat": "43.4314",
    "lng": "16.8897"
  },
  {
    "name": "Pašman",
    "lat": "43.9569",
    "lng": "15.3800"
  },
  {
    "name": "Gradec",
    "lat": "45.9111",
    "lng": "16.4828"
  },
  {
    "name": "Hlebine",
    "lat": "46.1539",
    "lng": "16.9661"
  },
  {
    "name": "Draganići",
    "lat": "45.6000",
    "lng": "15.6000"
  },
  {
    "name": "Kaštelir",
    "lat": "45.3033",
    "lng": "13.6853"
  },
  {
    "name": "Sutivan",
    "lat": "43.3833",
    "lng": "16.4833"
  },
  {
    "name": "Klanjec",
    "lat": "46.0500",
    "lng": "15.7167"
  },
  {
    "name": "Dobrinj",
    "lat": "45.1300",
    "lng": "14.6040"
  },
  {
    "name": "Kraj",
    "lat": "43.6375",
    "lng": "16.5819"
  },
  {
    "name": "Zemunik Donji",
    "lat": "44.1067",
    "lng": "15.3806"
  },
  {
    "name": "Runović",
    "lat": "43.3833",
    "lng": "17.2167"
  },
  {
    "name": "Blato",
    "lat": "42.9408",
    "lng": "16.7917"
  },
  {
    "name": "Kaptol",
    "lat": "45.4347",
    "lng": "17.7261"
  },
  {
    "name": "Velika Ludina",
    "lat": "45.6000",
    "lng": "16.6000"
  },
  {
    "name": "Karojba",
    "lat": "45.3000",
    "lng": "13.8167"
  },
  {
    "name": "Vlaka",
    "lat": "42.9992",
    "lng": "17.5242"
  },
  {
    "name": "Krašić",
    "lat": "45.6500",
    "lng": "15.5167"
  },
  {
    "name": "Nova Rača",
    "lat": "45.7994",
    "lng": "16.9536"
  },
  {
    "name": "Smokvica",
    "lat": "42.9453",
    "lng": "16.9047"
  },
  {
    "name": "Rogoznica",
    "lat": "43.5263",
    "lng": "15.9695"
  },
  {
    "name": "Mošćenička Draga",
    "lat": "45.2333",
    "lng": "14.2500"
  },
  {
    "name": "Ozalj",
    "lat": "45.6128",
    "lng": "15.4769"
  },
  {
    "name": "Kravarsko",
    "lat": "45.5800",
    "lng": "16.0400"
  },
  {
    "name": "Ferdinandovac",
    "lat": "46.0611",
    "lng": "17.1914"
  },
  {
    "name": "Novigrad Podravski",
    "lat": "46.0781",
    "lng": "16.9539"
  },
  {
    "name": "Vis",
    "lat": "43.0603",
    "lng": "16.1836"
  },
  {
    "name": "Privlaka",
    "lat": "45.1947",
    "lng": "18.8375"
  },
  {
    "name": "Bogdanovci",
    "lat": "45.3333",
    "lng": "18.9333"
  },
  {
    "name": "Kamanje",
    "lat": "45.6358",
    "lng": "15.3944"
  },
  {
    "name": "Buzet",
    "lat": "45.4072",
    "lng": "13.9647"
  },
  {
    "name": "Višnjan",
    "lat": "45.2761",
    "lng": "13.7200"
  },
  {
    "name": "Gola",
    "lat": "46.1958",
    "lng": "17.0581"
  },
  {
    "name": "Mali Lošinj",
    "lat": "44.5339",
    "lng": "14.4681"
  },
  {
    "name": "Popovac",
    "lat": "45.8092",
    "lng": "18.6583"
  },
  {
    "name": "Rakovec",
    "lat": "45.9303",
    "lng": "16.3225"
  },
  {
    "name": "Cavtat",
    "lat": "42.5811",
    "lng": "18.2181"
  },
  {
    "name": "Pićan",
    "lat": "45.2039",
    "lng": "14.0406"
  },
  {
    "name": "Marčana",
    "lat": "44.9567",
    "lng": "13.9550"
  },
  {
    "name": "Marina",
    "lat": "43.5147",
    "lng": "16.1064"
  },
  {
    "name": "Klis",
    "lat": "43.5667",
    "lng": "16.5167"
  },
  {
    "name": "Nin",
    "lat": "44.2397",
    "lng": "15.1811"
  },
  {
    "name": "Selca",
    "lat": "43.3000",
    "lng": "16.8500"
  },
  {
    "name": "Čazma",
    "lat": "45.7492",
    "lng": "16.6144"
  },
  {
    "name": "Vižinada",
    "lat": "45.3333",
    "lng": "13.7667"
  },
  {
    "name": "Orebić",
    "lat": "42.9744",
    "lng": "17.1786"
  },
  {
    "name": "Stankovci",
    "lat": "43.9167",
    "lng": "15.7000"
  },
  {
    "name": "Severin",
    "lat": "45.8369",
    "lng": "16.9592"
  },
  {
    "name": "Nova Kapela",
    "lat": "45.1989",
    "lng": "17.6392"
  },
  {
    "name": "Lipovljani",
    "lat": "45.4000",
    "lng": "16.8900"
  },
  {
    "name": "Gorjani",
    "lat": "45.4000",
    "lng": "18.3667"
  },
  {
    "name": "Trilj",
    "lat": "43.6167",
    "lng": "16.7167"
  },
  {
    "name": "Lipik",
    "lat": "45.4142",
    "lng": "17.1611"
  },
  {
    "name": "Gradina",
    "lat": "45.8550",
    "lng": "17.5072"
  },
  {
    "name": "Komiža",
    "lat": "43.0436",
    "lng": "16.0894"
  },
  {
    "name": "Žakanje",
    "lat": "45.6000",
    "lng": "15.3400"
  },
  {
    "name": "Grohote",
    "lat": "43.3917",
    "lng": "16.2872"
  },
  {
    "name": "Štefanje",
    "lat": "45.8000",
    "lng": "16.7200"
  },
  {
    "name": "Tinjan",
    "lat": "45.2172",
    "lng": "13.8389"
  },
  {
    "name": "Barban",
    "lat": "45.1000",
    "lng": "14.0167"
  },
  {
    "name": "Motovun",
    "lat": "45.3358",
    "lng": "13.8278"
  },
  {
    "name": "Rasinja",
    "lat": "46.1839",
    "lng": "16.7067"
  },
  {
    "name": "Zrinski Topolovac",
    "lat": "46.0200",
    "lng": "16.7600"
  },
  {
    "name": "Milna",
    "lat": "43.3289",
    "lng": "16.4478"
  },
  {
    "name": "Skradin",
    "lat": "43.8167",
    "lng": "15.9222"
  },
  {
    "name": "Podgora",
    "lat": "43.2433",
    "lng": "17.0772"
  },
  {
    "name": "Svetvinčenat",
    "lat": "45.0881",
    "lng": "13.8817"
  },
  {
    "name": "Ravna Gora",
    "lat": "45.3728",
    "lng": "14.9353"
  },
  {
    "name": "Kolan",
    "lat": "44.4900",
    "lng": "14.9600"
  },
  {
    "name": "Pag",
    "lat": "44.4435",
    "lng": "15.0545"
  },
  {
    "name": "Lekenik",
    "lat": "45.5833",
    "lng": "16.2167"
  },
  {
    "name": "Farkaševac",
    "lat": "45.8794",
    "lng": "16.6408"
  },
  {
    "name": "Kapela",
    "lat": "45.9881",
    "lng": "16.8517"
  },
  {
    "name": "Kanfanar",
    "lat": "45.1233",
    "lng": "13.8400"
  },
  {
    "name": "Pisarovina",
    "lat": "45.5850",
    "lng": "15.8597"
  },
  {
    "name": "Lokvičič",
    "lat": "43.5000",
    "lng": "17.0600"
  },
  {
    "name": "Jelsa",
    "lat": "43.1600",
    "lng": "16.6900"
  },
  {
    "name": "Kula Norinska",
    "lat": "43.0286",
    "lng": "17.6047"
  },
  {
    "name": "Vrbnik",
    "lat": "45.0833",
    "lng": "14.6667"
  },
  {
    "name": "Lokve",
    "lat": "45.3581",
    "lng": "14.7481"
  },
  {
    "name": "Generalski Stol",
    "lat": "45.3400",
    "lng": "15.3800"
  },
  {
    "name": "Ogulin",
    "lat": "45.2669",
    "lng": "15.2248"
  },
  {
    "name": "Pakrac",
    "lat": "45.4389",
    "lng": "17.1917"
  },
  {
    "name": "Bribir",
    "lat": "45.1611",
    "lng": "14.7647"
  },
  {
    "name": "Šandrovac",
    "lat": "45.9000",
    "lng": "17.0167"
  },
  {
    "name": "Primorski Dolac",
    "lat": "43.6308",
    "lng": "16.1761"
  },
  {
    "name": "Grubišno Polje",
    "lat": "45.7022",
    "lng": "17.1725"
  },
  {
    "name": "Sokolovac",
    "lat": "46.1108",
    "lng": "16.7064"
  },
  {
    "name": "Gračišće",
    "lat": "45.2194",
    "lng": "14.0103"
  },
  {
    "name": "Netretić",
    "lat": "45.5089",
    "lng": "15.4131"
  },
  {
    "name": "Otrić-Seoci",
    "lat": "43.1586",
    "lng": "17.4508"
  },
  {
    "name": "Kršan",
    "lat": "45.1667",
    "lng": "14.1333"
  },
  {
    "name": "Vrgorac",
    "lat": "43.2000",
    "lng": "17.3667"
  },
  {
    "name": "Velika Trnovitica",
    "lat": "45.6833",
    "lng": "16.9500"
  },
  {
    "name": "Drniš",
    "lat": "43.8500",
    "lng": "16.1500"
  },
  {
    "name": "Velika Pisanica",
    "lat": "45.8000",
    "lng": "17.0833"
  },
  {
    "name": "Borovo",
    "lat": "45.4053",
    "lng": "18.9758"
  },
  {
    "name": "Jagodnjak",
    "lat": "45.7000",
    "lng": "18.5800"
  },
  {
    "name": "Krnjak",
    "lat": "45.3346",
    "lng": "15.5986"
  },
  {
    "name": "Novi Vinodolski",
    "lat": "45.1333",
    "lng": "14.7833"
  },
  {
    "name": "Šestanovac",
    "lat": "43.4500",
    "lng": "16.9100"
  },
  {
    "name": "Janjina",
    "lat": "42.9250",
    "lng": "17.4281"
  },
  {
    "name": "Trnava",
    "lat": "45.2614",
    "lng": "18.2531"
  },
  {
    "name": "Lasinja",
    "lat": "45.5286",
    "lng": "15.8528"
  },
  {
    "name": "Sunja",
    "lat": "45.3650",
    "lng": "16.5669"
  },
  {
    "name": "Otočac",
    "lat": "44.8697",
    "lng": "15.2372"
  },
  {
    "name": "Fužine",
    "lat": "45.3000",
    "lng": "14.7200"
  },
  {
    "name": "Skrad",
    "lat": "45.4278",
    "lng": "14.9111"
  },
  {
    "name": "Barilović",
    "lat": "45.3786",
    "lng": "15.5467"
  },
  {
    "name": "Ðulovac",
    "lat": "45.6661",
    "lng": "17.4333"
  },
  {
    "name": "Crnac",
    "lat": "45.6961",
    "lng": "17.9372"
  },
  {
    "name": "Baška",
    "lat": "44.9706",
    "lng": "14.7542"
  },
  {
    "name": "Pokupsko",
    "lat": "45.4872",
    "lng": "15.9933"
  },
  {
    "name": "Donji Muć",
    "lat": "43.6949",
    "lng": "16.4601"
  },
  {
    "name": "Cista Provo",
    "lat": "43.5000",
    "lng": "16.9500"
  },
  {
    "name": "Čabar",
    "lat": "45.5964",
    "lng": "14.6458"
  },
  {
    "name": "Majur",
    "lat": "45.2550",
    "lng": "16.5319"
  },
  {
    "name": "Sveti Lovreč Pazenatički",
    "lat": "45.1761",
    "lng": "13.7442"
  },
  {
    "name": "Klana",
    "lat": "45.4500",
    "lng": "14.3667"
  },
  {
    "name": "Vrbovsko",
    "lat": "45.3700",
    "lng": "15.0800"
  },
  {
    "name": "Hrvace",
    "lat": "43.7600",
    "lng": "16.6200"
  },
  {
    "name": "Cerovlje",
    "lat": "45.2783",
    "lng": "14.0122"
  },
  {
    "name": "Sirač",
    "lat": "45.5167",
    "lng": "17.2500"
  },
  {
    "name": "Topusko",
    "lat": "45.2931",
    "lng": "15.9722"
  },
  {
    "name": "Kistanje",
    "lat": "43.9875",
    "lng": "15.9608"
  },
  {
    "name": "Cetingrad",
    "lat": "45.1606",
    "lng": "15.7367"
  },
  {
    "name": "Bale",
    "lat": "45.0458",
    "lng": "13.7872"
  },
  {
    "name": "Lišane Ostrovičke",
    "lat": "43.9667",
    "lng": "15.7667"
  },
  {
    "name": "Ston",
    "lat": "42.8333",
    "lng": "17.7000"
  },
  {
    "name": "Lastovo",
    "lat": "42.7681",
    "lng": "16.8842"
  },
  {
    "name": "Donji Kukuruzari",
    "lat": "45.2646",
    "lng": "16.4838"
  },
  {
    "name": "Lovreć",
    "lat": "43.5000",
    "lng": "17.0000"
  },
  {
    "name": "Plaški",
    "lat": "45.0833",
    "lng": "15.3667"
  },
  {
    "name": "Biskupija",
    "lat": "44.0000",
    "lng": "16.2333"
  },
  {
    "name": "Gvozd",
    "lat": "45.3503",
    "lng": "15.8806"
  },
  {
    "name": "Obrovac",
    "lat": "44.1992",
    "lng": "15.6817"
  },
  {
    "name": "Slunj",
    "lat": "45.1156",
    "lng": "15.5847"
  },
  {
    "name": "Jesenice",
    "lat": "44.2300",
    "lng": "15.5775"
  },
  {
    "name": "Starigrad",
    "lat": "44.2931",
    "lng": "15.4431"
  },
  {
    "name": "Brod Moravice",
    "lat": "45.4600",
    "lng": "14.9700"
  },
  {
    "name": "Berek",
    "lat": "45.7414",
    "lng": "16.8303"
  },
  {
    "name": "Jasenovac",
    "lat": "45.2717",
    "lng": "16.9117"
  },
  {
    "name": "Nerežišće",
    "lat": "43.3300",
    "lng": "16.5750"
  },
  {
    "name": "Dvor",
    "lat": "45.0689",
    "lng": "16.3764"
  },
  {
    "name": "Oprtalj",
    "lat": "45.3819",
    "lng": "13.8242"
  },
  {
    "name": "Bosiljevo",
    "lat": "45.4000",
    "lng": "15.3000"
  },
  {
    "name": "Senj",
    "lat": "44.9903",
    "lng": "14.9014"
  },
  {
    "name": "Ribnik",
    "lat": "45.5756",
    "lng": "15.3528"
  },
  {
    "name": "Vrhovine",
    "lat": "44.8517",
    "lng": "15.4192"
  },
  {
    "name": "Babino Polje",
    "lat": "42.7333",
    "lng": "17.5619"
  },
  {
    "name": "Mlinište",
    "lat": "42.9925",
    "lng": "17.6158"
  },
  {
    "name": "Lupoglav",
    "lat": "45.3528",
    "lng": "14.1075"
  },
  {
    "name": "Slano",
    "lat": "42.7861",
    "lng": "17.8919"
  },
  {
    "name": "Cres",
    "lat": "44.9614",
    "lng": "14.4078"
  },
  {
    "name": "Grožnjan",
    "lat": "45.3833",
    "lng": "13.7167"
  },
  {
    "name": "Ružić",
    "lat": "43.8167",
    "lng": "16.2500"
  },
  {
    "name": "Rakovica",
    "lat": "45.0167",
    "lng": "15.6500"
  },
  {
    "name": "Brinje",
    "lat": "45.0000",
    "lng": "15.1333"
  },
  {
    "name": "Sućuraj",
    "lat": "43.1253",
    "lng": "17.1861"
  },
  {
    "name": "Unešić",
    "lat": "43.7400",
    "lng": "16.1889"
  },
  {
    "name": "Žumberak",
    "lat": "45.7500",
    "lng": "15.4333"
  },
  {
    "name": "Korenica",
    "lat": "44.7439",
    "lng": "15.7097"
  },
  {
    "name": "Oklaj",
    "lat": "43.9506",
    "lng": "16.0822"
  },
  {
    "name": "Zagvozd",
    "lat": "43.5000",
    "lng": "16.9500"
  },
  {
    "name": "Mrkopalj",
    "lat": "45.3167",
    "lng": "14.8500"
  },
  {
    "name": "Perušić",
    "lat": "44.6076",
    "lng": "15.2346"
  },
  {
    "name": "Lećevica",
    "lat": "43.6489",
    "lng": "16.3489"
  },
  {
    "name": "Donji Lapac",
    "lat": "44.5500",
    "lng": "15.9667"
  },
  {
    "name": "Ervenik",
    "lat": "44.1077",
    "lng": "15.9399"
  },
  {
    "name": "Kijevo",
    "lat": "43.9789",
    "lng": "16.3511"
  },
  {
    "name": "Sali",
    "lat": "43.9333",
    "lng": "15.1667"
  },
  {
    "name": "Gračac",
    "lat": "44.2972",
    "lng": "15.8500"
  },
  {
    "name": "Saborsko",
    "lat": "44.9836",
    "lng": "15.4786"
  },
  {
    "name": "Civljane",
    "lat": "43.9500",
    "lng": "16.4000"
  },
  {
    "name": "Karlobag",
    "lat": "44.5255",
    "lng": "15.0726"
  },
  {
    "name": "Udbina",
    "lat": "44.5622",
    "lng": "15.7708"
  },
  {
    "name": "Lovinac",
    "lat": "44.3900",
    "lng": "15.6900"
  },
  {
    "name": "Lanišće",
    "lat": "45.4072",
    "lng": "14.1164"
  }
]
